Station,Station Name,Country,Watershed-Area,Latitude,Longitude,YR-MaxFlow-2020,Specific-YR-MaxFlow-2020,GM-MaxFlow-2020,Specific-GM-MaxFlow-2020,NGM-MaxFlow-2020,Specific-NGM-MaxFlow-2020,YR-MinFlow-2020,Specific-YR-MinFlow-2020,GM-MinFlow-2020,Specific-GM-MinFlow-2020,NGM-MinFlow-2020,Specific-NGM-MinFlow-2020,YR-MedianFlow-2020,Specific-YR-MedianFlow-2020,GM-MedianFlow-2020,Specific-GM-MedianFlow-2020,NGM-MedianFlow-2020,Specific-NGM-MedianFlow-2020,YR-Q95Flow-2020,Specific-YR-Q95-2020,GM-Q95Flow-2020,Specific-GM-Q95-2020,NGM-Q95Flow-2020,Specific-NGM-Q95-2020,YR-Q5Flow-2020,Specific-YR-Q5-2020,GM-Q5Flow-2020,Specific-GM-Q5-2020,NGM-Q5Flow-2020,Specific-NGM-Q5-2020,YR-BFI-2020,GM-BFI-2020,NGM-BFI-2020,YR-DOY-MaxFlow-2020,GM-DOY-MaxFlow-2020,NGM-DOY-MaxFlow-2020,YR-DOY-MinFlow-2020,GM-DOY-MinFlow-2020,NGM-DOY-MinFlow-2020,YR-RBI-2020,GM-RBI-2020,NGM-RBI-2020,YR-CVQ-2020,GM-CVQ-2020,NGM-CVQ-2020
02GA003,SYDENHAM RIVER NEAR ALVINSTON,Canada,701.1790315,42.83081,-81.85172,639,78.73823591,49.5,6.09944081,639,78.73823591,12.3,1.515618626,12.3,1.515618626,16.9,2.082435347,24.7,3.043559354,18.8,2.316555298,32.65,4.023166514,127.4,15.69835877,37.92,4.672541324,166.8,20.55326722,14.24,1.754667417,13.66,1.683199222,166.8,20.55326722,0.455943537,0.418963606,0.445302,12,140,12,214,214,286,0.22,0.16,0.24,1.3909,0.3529,1.2703
02GA005,SYDENHAM RIVER AT FLORENCE,Canada,1149.322027,42.65061,-82.00839,103,7.742999604,5.96,0.44804153,103,7.742999604,0.054000001,0.004059437,0.054000001,0.004059437,0.50400001,0.037888076,1.1,0.082692229,0.40599999,0.030520949,1.64,0.123286596,7.70399998,0.579146299,1.664,0.12509079,16.03499955,1.205427138,0.1342,0.010088452,0.087800002,0.006600344,16.03499955,1.205427138,0.403112718,0.404019131,0.393692727,12,140,12,238,238,319,0.52,0.33,0.54,2.948,1.1331,2.4142
02GA010,SYDENHAM RIVER AT STRATHROY,Canada,170.5938779,42.95886,-81.62714,314,159.0303259,32.599998,16.51079078,314,159.0303259,1.8099999,0.91670342,1.8099999,0.91670342,2.25,1.139548514,5.96,3.018537396,3.21,1.625755879,7.8499999,3.975758097,29.3799998,14.87997116,11.36,5.753453829,39.80499965,20.15987919,2.274,1.151703698,2.06799994,1.04737167,39.80499965,20.15987919,0.470426743,0.472868429,0.462725303,13,141,13,271,271,286,0.35,0.17,0.39,2.1678,0.805,1.9489
02GA014,BEAR CREEK NEAR PETROLIA,Canada,248.7221028,42.90583,-82.11911,188,65.30662059,29.1,10.10863117,188,65.30662059,0.574,0.199393618,0.574,0.199393618,2,0.694751283,4.5900002,1.594454264,1.74,0.604433616,6.64999985,2.310047963,29.5,10.24758142,8.02200012,2.786647437,57.20500245,19.87162442,0.889600004,0.309025372,0.728800026,0.253167377,57.20500245,19.87162442,0.385476638,0.440358057,0.383326193,12,217,12,189,189,286,0.41,0.37,0.41,1.9411,1.3275,1.6394
02GA015,BEAR CREEK BELOW BRIGDEN,Canada,535.608101,42.81203,-82.29842,65.800003,10.61432837,8.3599997,1.348568053,65.800003,10.61432837,1.37,0.220997404,1.37,0.220997404,1.67,0.269390996,3.3800001,0.545234488,2.3,0.37101754,5.4599998,0.880763345,17.0200002,2.745529828,5.18199998,0.835918645,21.445,3.45933528,1.67,0.269390996,1.526,0.246162072,21.445,3.45933528,0.488422152,0.416086555,0.429592839,13,141,13,238,238,276,0.14,0.12,0.15,1.2562,0.4745,1.1294
02GA016,BLACK CREEK NEAR BRADSHAW,Canada,213.3575584,42.76244,-82.25922,120,48.59448185,20.200001,8.180071517,120,48.59448185,3.3599999,1.360645451,3.3599999,1.360645451,4.8499999,1.964026934,5.4400001,2.202949885,5.1300001,2.07741414,5.84500005,2.366956241,36.8599998,14.92660493,8.11999992,3.288226573,50.06499945,20.27402256,4.25200004,1.72186449,3.8299999,1.550973839,50.06499945,20.27402256,0.407754872,0.309012681,0.378414718,16,221,16,206,206,285,0.21,0.11,0.24,1.3999,0.3371,1.2987
02GA018,LITTLE RIVER AT WINDSOR,Canada,55.2569403,42.30986,-82.9285,296,462.8269293,23.4,36.58834508,296,462.8269293,0.175,0.273630786,0.175,0.273630786,0.37200001,0.581660886,1.8,2.814488083,0.616,0.963180366,2.6550001,4.151370079,17.0799994,26.70636376,4.84399996,7.574100091,26.455,41.3651568,0.31999999,0.500353421,0.283399996,0.443125506,26.455,41.3651568,0.461412039,0.412636802,0.456860145,12,140,12,191,191,285,0.62,0.4,0.64,3.5504,1.7346,2.9674
02GA023,THAMES RIVER AT BYRON,Canada,3082.608824,42.9625,-81.33178,55.400002,1.552762756,2.3699999,0.066426849,55.400002,1.552762756,0.27599999,0.007735785,0.27599999,0.007735785,0.31600001,0.008856914,0.51099998,0.014322414,0.426,0.011940016,0.791999995,0.02219834,4.7919999,0.134311168,0.994200012,0.027865644,6.5035001,0.182281451,0.33199999,0.009305365,0.32120001,0.009002661,6.5035001,0.182281451,0.434655562,0.454186156,0.382688667,12,163,12,234,234,309,0.4,0.23,0.44,2.7017,0.5346,2.3577
02GA024,THAMES RIVER AT THAMESVILLE,Canada,4370.375881,42.54486,-81.96727,11.3,0.223394973,2.1700001,0.042899744,11.3,0.223394973,0.052999999,0.001047782,0.052999999,0.001047782,0.14,0.002767725,0.34900001,0.006899544,0.18799999,0.00371666,0.41100001,0.008125251,1.776,0.035110573,1.44,0.028468032,2.0879999,0.041278644,0.113,0.00223395,0.097599999,0.0019295,2.0879999,0.041278644,0.354794278,0.433762102,0.292084476,11,162,11,244,244,286,0.4,0.55,0.35,1.6519,1.1333,1.6224
02GA028,DINGMAN CREEK BELOW LAMBETH,Canada,148.5857904,42.93411,-81.35131,150,87.22233778,8.3000002,4.826302807,150,87.22233778,1.74,1.011779118,1.74,1.011779118,3.04,1.767706046,3.6400001,2.116595455,2.28,1.325779534,4.8399999,2.814374041,17.7399992,10.31549468,4.83399984,2.810885113,27.99,16.27568823,1.85,1.075742166,1.79,1.040853231,27.99,16.27568823,0.413956604,0.377751524,0.401798018,14,271,14,195,195,118,0.27,0.06,0.31,2.0919,0.4669,1.8523
02GA029,THAMES RIVER NEAR DUTTON,Canada,3815.707943,42.73069,-81.57747,36.5,0.826478349,5.0300002,0.113895514,36.5,0.826478349,0.41299999,0.009351659,0.41299999,0.009351659,0.46599999,0.010551751,1.42,0.032153404,0.82300001,0.018635389,2.3349999,0.052871969,6.56599996,0.148675529,2.94000006,0.066571134,7.86849999,0.178168353,0.50300002,0.011389551,0.472599994,0.010701196,7.86849999,0.178168353,0.491605676,0.461593487,0.483708308,13,140,13,272,272,275,0.19,0.16,0.21,1.4044,0.7298,1.2773
02GA030,MCGREGOR CREEK NEAR CHATHAM,Canada,203.7962393,42.3835,-82.09506,5.5,2.33174077,0.60500002,0.256491493,5.5,2.33174077,0.022,0.009326963,0.022,0.009326963,0.046999998,0.019925784,0.111,0.047058768,0.061999999,0.026285077,0.146,0.061897119,0.516399988,0.218929256,0.247600004,0.104970732,0.586450021,0.248627168,0.035999998,0.015262302,0.0286,0.012125052,0.586450021,0.248627168,0.463435279,0.447215252,0.448582721,12,139,12,237,237,285,0.42,0.36,0.44,2.1092,1.0077,1.9594
02GA031,OXBOW CREEK NEAR KILWORTH,Canada,85.66296022,42.966,-81.41803,5.54,5.58766588,1.03,1.038862068,5.54,5.58766588,0.14,0.141204553,0.14,0.141204553,0.15899999,0.160368018,0.336,0.338890927,0.23999999,0.242064938,0.605749998,0.61096184,1.36,1.371701371,0.645599994,0.651154704,1.5705,1.584012503,0.163,0.164402444,0.152,0.1533078,1.5705,1.584012503,0.487555604,0.448757183,0.468723634,12,140,12,270,270,285,0.13,0.13,0.14,0.9672,0.5458,0.8988
02GA039,THAMES RIVER NEAR EALING,Canada,1338.100895,42.97356,-81.20858,151,9.749937429,16.799999,1.084761186,151,9.749937429,0.037,0.002389058,0.037,0.002389058,0.264,0.017046248,1.3200001,0.085231248,0.228,0.01472176,2.47,0.159485731,13.44,0.867809,2.28200006,0.14734674,27.63499955,1.784367659,0.0702,0.004532752,0.0516,0.003331767,27.63499955,1.784367659,0.384371055,0.38928901,0.379655553,11,140,11,238,238,286,0.64,0.56,0.65,3.0494,2.2701,2.421
02GA043,MIDDLE THAMES RIVER AT THAMESFORD,Canada,262.4022353,43.05911,-80.99486,1.59,0.523532126,0.37599999,0.12380382,1.59,0.523532126,0.071000002,0.02337785,0.071000002,0.02337785,0.094999999,0.031280221,0.14,0.046097168,0.098999999,0.032597283,0.163500005,0.053834909,0.341400008,0.11241124,0.211199994,0.069540869,0.370000004,0.121828232,0.078000002,0.025682709,0.075000003,0.024694913,0.370000004,0.121828232,0.480355876,0.456200884,0.473102716,11,122,11,213,213,286,0.23,0.2,0.25,0.8397,0.4709,0.8335
02GA047,NORTH THAMES RIVER NEAR MITCHELL,Canada,315.3971446,43.45042,-81.20678,95,26.02433199,12.8,3.50643631,95,26.02433199,1.6900001,0.462959196,1.6900001,0.462959196,2.3800001,0.651978029,5.4000001,1.479277846,3.27,0.895784901,7.5799999,2.076467725,22.88,6.267754905,8.99000016,2.462723671,30.78500055,8.433253417,2.21,0.605408144,2.1119999,0.578561964,30.78500055,8.433253417,0.481681504,0.364979084,0.469820707,13,215,13,239,239,286,0.16,0.19,0.15,1.2256,0.562,1.0973
02GB001,NORTH THAMES RIVER NEAR THORNDALE,Canada,1323.296042,43.14931,-81.19214,830,54.19195533,94.699997,6.183106033,830,54.19195533,18.200001,1.188305592,18.200001,1.188305592,23.700001,1.54740891,38.799999,2.533310618,27.299999,1.782458225,50.75,3.313544257,171,11.16484863,53.5399992,3.495707524,227.25,14.8374962,20.5599998,1.342393483,19.1200006,1.248373757,227.25,14.8374962,0.48083185,0.449351863,0.47597579,13,141,13,214,214,286,0.2,0.13,0.22,1.345,0.3956,1.2284
02GB006,THAMES RIVER AT INGERSOLL,Canada,509.9464344,43.04128,-80.88617,37.200001,6.302779801,4.71,0.798013228,37.200001,6.302779801,0.139,0.023550709,0.139,0.023550709,0.20299999,0.034394199,0.90700001,0.153672613,0.30500001,0.051676017,1.42500005,0.241437131,5.68599998,0.963376475,2.5,0.4235739,7.438000055,1.260217077,0.170400002,0.028870797,0.155800006,0.026397126,7.438000055,1.260217077,0.412449183,0.476753494,0.374381286,13,141,13,270,270,286,0.27,0.19,0.29,1.7855,1.1823,1.529
02GB008,THAMES RIVER AT INNERKIP,Canada,148.8551636,43.21531,-80.69186,77.800003,45.15745438,11.5,6.674944798,77.800003,45.15745438,0.52999997,0.307627873,0.52999997,0.307627873,0.93599999,0.543282458,2.5899999,1.503313597,0.93300003,0.541541191,4.0000001,2.321719988,12.94,7.510763973,5.91799994,3.434984601,15.135,8.784807785,0.607200006,0.352437089,0.583800006,0.338855027,15.135,8.784807785,0.483333544,0.475329695,0.477960654,13,141,13,236,236,286,0.22,0.15,0.24,1.5393,1.0655,1.3202
02GB010,REYNOLDS CREEK NEAR PUTNAM,Canada,145.1354907,42.98156,-80.95461,19.799999,11.78705433,4.3200002,2.571721193,19.799999,11.78705433,0.12899999,0.076794443,0.12899999,0.076794443,0.17399999,0.103583204,0.77399999,0.460766686,0.31299999,0.186330711,1.395,0.830451597,5.93400004,3.532544666,2.7640001,1.645425302,8.499999755,5.060099189,0.1912,0.11382247,0.1676,0.099773253,8.499999755,5.060099189,0.475961515,0.492794987,0.469019352,13,140,13,250,250,275,0.24,0.19,0.26,1.518,1.3167,1.2672
02GC002,STONEY CREEK AT LONDON,Canada,37.32681254,43.022,-81.25344,132,305.539081,16.6,38.42385413,132,305.539081,0.102,0.236098381,0.102,0.236098381,0.29100001,0.673574815,1.4,3.240566011,0.36500001,0.844861876,2.5999999,6.018193788,13.76,31.8501345,3.96800004,9.184690043,21.545,49.86999621,0.154600002,0.35785108,0.14,0.324056601,21.545,49.86999621,0.411700088,0.420676234,0.408364892,12,140,12,271,271,277,0.61,0.5,0.64,2.5373,2.2319,2.1106
02GC006,KETTLE CREEK AT ST. THOMAS,Canada,330.8813688,42.77769,-81.214,33.900002,8.851994851,10.2,2.663431922,33.900002,8.851994851,0.99400002,0.259554057,0.99400002,0.259554057,1.4,0.365569087,2.99,0.780751122,1.58,0.412570827,4.7650001,1.244240527,9.7620003,2.5490611,6.89599992,1.800688855,11.335,2.959804003,1.18199994,0.308644742,1.086,0.283577163,11.335,2.959804003,0.483690252,0.484634611,0.467590227,13,141,13,213,213,275,0.13,0.11,0.14,0.8669,0.7725,0.7728
02GC007,BIG CREEK NEAR DELHI,Canada,369.8316811,42.83772,-80.50989,40.900002,9.555049914,14.3,3.34076301,40.900002,9.555049914,2.29,0.534989321,2.29,0.534989321,3.4200001,0.798979708,5.8899999,1.376020545,3.49,0.81533307,9.0474999,2.113675035,15.4,3.59774478,11.72,2.738023949,16.925001,3.954015194,2.6440001,0.61769075,2.44600004,0.571434018,16.925001,3.954015194,0.473420018,0.468195634,0.457561167,14,123,14,191,191,275,0.09,0.1,0.1,0.6488,0.6022,0.5358
02GC008,BIG CREEK NEAR WALSINGHAM,Canada,566.7337733,42.68561,-80.53847,8.1800003,1.247061776,4.1599998,0.634202512,8.1800003,1.247061776,0.73699999,0.112357516,0.73699999,0.112357516,0.903,0.137664638,1.5599999,0.237825938,1.16,0.17684494,2.1800001,0.33234654,3.30799992,0.504312971,2.39399998,0.364971364,3.9045001,0.595250935,0.916600014,0.139737995,0.890599978,0.135774224,3.9045001,0.595250935,0.468459899,0.472850416,0.450592825,12,122,12,270,270,286,0.11,0.11,0.12,0.4995,0.4115,0.4589
02GC010,LYNN RIVER AT SIMCOE,Canada,143.7553595,42.82333,-80.28944,80.800003,48.56250427,13.8,8.294090767,80.800003,48.56250427,0.72399998,0.435139243,0.72399998,0.435139243,1.11,0.667133388,2.4400001,1.466491471,1.35,0.811378445,3.69500005,2.220772884,12.84,7.71711054,5.54999996,3.335666915,16.445,9.883791498,0.93779999,0.563637554,0.85339999,0.512911375,16.445,9.883791498,0.45903076,0.457428614,0.429279981,12,140,12,235,235,319,0.29,0.17,0.32,1.5656,0.9631,1.4348
02GC011,BIG OTTER CREEK AT TILLSONBURG,Canada,354.1052234,42.85731,-80.72358,25,6.099881779,6.0700002,1.481051345,25,6.099881779,0.048,0.011711773,0.048,0.011711773,0.13699999,0.03342735,0.86799997,0.211787888,0.191,0.046603097,1.505,0.367212883,4.64999986,1.134577977,2.38999994,0.583148683,6.11450001,1.491909088,0.088,0.021471584,0.07,0.017079669,6.11450001,1.491909088,0.482336054,0.444092123,0.46846518,13,141,13,236,236,277,0.26,0.22,0.27,1.562,1.5387,1.326
02GC017,BIG CREEK NEAR KELVIN,Canada,154.0392511,42.98681,-80.44469,22,12.33971203,5.0999999,2.860569551,22,12.33971203,0.086999997,0.04879795,0.086999997,0.04879795,0.17900001,0.10040039,0.57800001,0.324197894,0.219,0.122836224,1.035,0.580527361,3.458,1.939578373,1.54199994,0.8649016,3.927000055,2.202638628,0.1332,0.074711347,0.1198,0.067195341,3.927000055,2.202638628,0.474917414,0.484795541,0.459109953,12,140,12,234,234,286,0.31,0.25,0.34,1.5735,1.4342,1.3692
02GC018,BIG OTTER CREEK ABOVE OTTERVILLE,Canada,101.0806372,42.96583,-80.54258,93.800003,80.17678246,5.9000001,5.043102445,93.800003,80.17678246,0.081,0.069235812,0.081,0.069235812,0.17900001,0.153002606,0.99800003,0.853053611,0.28999999,0.247881294,2.29499995,1.961681299,9.79599972,8.373259204,1.782,1.523187865,15.93500045,13.62065057,0.1302,0.111290157,0.1216,0.103939194,15.93500045,13.62065057,0.416458307,0.420685257,0.418587741,12,139,12,271,271,286,0.56,0.34,0.59,2.498,1.5651,1.9983
02GC021,CATFISH CREEK NEAR SPARTA,Canada,294.4971293,42.74608,-81.05694,,,,,,,,,,,,,,,,,,,,,,,,,,,,,,,,,,,,,,,,,,,,,
02GC022,VENISON CREEK NEAR WALSINGHAM,Canada,93.15285723,42.65336,-80.54844,14.2,13.1706105,5.6799998,5.268244016,14.2,13.1706105,0.048999999,0.04544788,0.048999999,0.04544788,0.21799999,0.202196687,0.97100002,0.900610075,0.248,0.23002193,1.8099999,1.678788993,5.29199988,4.908371071,2.7400001,2.541371416,6.0779999,5.637392206,0.1552,0.143949208,0.1044,0.096831812,6.0779999,5.637392206,0.452876641,0.483216567,0.306415479,12,122,12,250,250,275,0.27,0.22,0.3,1.1991,1.3899,0.9491
02GC026,NANTICOKE CREEK AT NANTICOKE,Canada,177.1669978,42.80992,-80.07617,88.099998,42.96420847,19.5,9.509671784,88.099998,42.96420847,1.75,0.853432083,1.75,0.853432083,2.5,1.21918869,4.96,2.418870361,2.8499999,1.389875058,8.61000015,4.198885922,23.299999,11.36283811,9.96199994,4.858223064,28.665,13.97921752,2.04999998,0.999734716,1.92000006,0.936336943,28.665,13.97921752,0.456755309,0.410346908,0.432051685,13,123,13,236,236,286,0.21,0.15,0.24,1.132,0.8189,0.9785
02GC029,BIG OTTER CREEK NEAR CALTON,Canada,664.5470657,42.71067,-80.84081,42.700001,5.551570802,5.6700001,0.737175791,42.700001,5.551570802,0.022,0.002860294,0.022,0.002860294,0.111,0.014431483,0.50800002,0.066046792,0.075999998,0.009881015,0.943999975,0.122732613,5.55999992,0.722874297,0.80200001,0.10427072,9.26099971,1.204053733,0.035,0.004550468,0.026600001,0.003458356,9.26099971,1.204053733,0.466047663,0.326205628,0.46340865,12,139,12,239,239,275,0.61,0.52,0.62,2.525,2.4403,1.994
02GC030,KETTLE CREEK ABOVE ST. THOMAS,Canada,134.0810281,42.83519,-81.13472,38.5,24.80887898,2.96,1.907383943,38.5,24.80887898,0.046999998,0.030286163,0.046999998,0.030286163,0.067000002,0.043173895,0.43099999,0.277730561,0.152,0.097946743,1.189999975,0.76681988,5.1620001,3.326323008,0.951799994,0.613327036,9.06250032,5.839752564,0.061999999,0.03995196,0.0546,0.035183501,9.06250032,5.839752564,0.438410262,0.446623466,0.418997917,12,122,12,270,270,283,0.53,0.28,0.56,2.3117,1.4667,1.856
02GC031,CATFISH CREEK AT AYLMER,Canada,126.7011717,42.77375,-80.98267,33.900002,23.11707251,9.4300003,6.430501115,33.900002,23.11707251,0.011,0.007501115,0.011,0.007501115,0.035,0.023867183,0.39399999,0.268676277,0.086999997,0.059326995,0.672499985,0.458590855,4.46199992,3.042724767,1.416,0.965598016,5.528499845,3.769991865,0.0244,0.016638836,0.017000001,0.011592632,5.528499845,3.769991865,0.381834563,0.452116896,0.394012662,12,217,12,189,189,285,0.66,0.69,0.66,2.4294,2.8913,2.0948
02GD001,DODD CREEK BELOW PAYNES MILLS,Canada,99.56096483,42.78739,-81.2675,252,218.6881177,56.799999,49.29160662,252,218.6881177,1.61,1.397174086,1.61,1.397174086,3.1199999,2.707567085,9.0699997,7.871036359,4.7800002,4.148131931,13.55,11.75882538,53.5599988,46.47990208,16.6199996,14.4230017,62.03500155,53.83459414,2.69800008,2.341351425,2.4000001,2.082744065,62.03500155,53.83459414,0.47532555,0.479962061,0.466036102,12,140,12,271,271,286,0.26,0.25,0.27,1.53,0.9937,1.335
02GD003,GRAND RIVER AT BRANTFORD,Canada,5200.519621,43.13272,-80.26731,351,5.831417283,39.599998,0.657903455,351,5.831417283,1.96,0.0325629,1.96,0.0325629,1.96,0.0325629,6.46,0.10732466,3.76,0.062467604,11.8,0.196041949,61.7400012,1.025731368,12.34,0.20501336,82.06999755,1.363488325,2.236,0.037148288,2.11000002,0.035054959,82.06999755,1.363488325,0.412390382,0.458545706,0.396236805,12,141,12,190,190,286,0.3,0.22,0.32,2.0069,1.0028,1.6816
02GD004,HORNER CREEK NEAR PRINCETON,Canada,165.1076811,43.17394,-80.55264,112,58.60902373,17.700001,9.262319452,112,58.60902373,0.259,0.135533367,0.259,0.135533367,0.52200001,0.273159919,1.65,0.86343651,0.61900002,0.323919526,2.49,1.303004188,13.3,6.959821568,2.9160001,1.525927849,17.33500055,9.071316595,0.32200001,0.168500948,0.280199998,0.146627217,17.33500055,9.071316595,0.408571584,0.488488835,0.371343182,12,140,12,213,213,286,0.4,0.3,0.43,2.3174,1.6002,1.9806
02GD009,FAIRCHILD CREEK NEAR BRANTFORD,Canada,388.643412,43.14739,-80.15461,5.1799998,1.15157486,2.3099999,0.513540138,5.1799998,1.15157486,0.50999999,0.113378994,0.50999999,0.113378994,0.54500002,0.121159912,1.29,0.286782167,1.16,0.257881639,1.385,0.307901784,4.64400006,1.032415816,1.63,0.362368165,4.74449989,1.054758109,0.608599984,0.135298932,0.654599974,0.145525271,4.74449989,1.054758109,0.451878114,0.369408625,0.413090249,25,138,25,134,134,328,0.06,0.06,0.06,0.6584,0.3293,0.6303
02GD010,WHITEMANS CREEK NEAR MOUNT VERNON,Canada,385.8653902,43.12625,-80.38372,66.599998,14.91255752,6.52,1.459908078,66.599998,14.91255752,0.028000001,0.006269544,0.028000001,0.006269544,0.118,0.026421649,0.71100003,0.159201639,0.204,0.045678105,1.22,0.273172984,5.98000002,1.33899545,1.246,0.278994703,7.820500055,1.751106012,0.069399999,0.015539512,0.048999999,0.010971702,7.820500055,1.751106012,0.425362975,0.305742394,0.419928859,12,223,12,213,213,275,0.48,0.52,0.48,2.623,1.7108,2.1541
02GD011,MCKENZIE CREEK NEAR CALEDONIA,Canada,172.7843168,43.03394,-79.94981,16.4,8.200744293,4.8099999,2.405218246,16.4,8.200744293,0.162,0.081007352,0.162,0.081007352,0.29499999,0.147513383,0.69099998,0.34553135,0.44,0.220019969,0.978000015,0.489044393,3.0979999,1.549140549,1.27,0.635057637,4.382499965,2.191448877,0.218199992,0.109109899,0.186799994,0.093408475,4.382499965,2.191448877,0.477033765,0.482922391,0.468840869,12,140,12,235,235,285,0.31,0.3,0.32,1.3379,1.043,1.2118
02GD014,IRVINE RIVER NEAR SALEM,Canada,168.3303441,43.6936,-80.44531,155,79.55784842,8.2600002,4.239663509,155,79.55784842,0.050999999,0.026177098,0.050999999,0.026177098,0.071000002,0.036442628,1.21,0.621064494,0.182,0.093416312,2.0599999,1.057349418,11.3,5.800023788,1.80200004,0.924924168,19.8700001,10.19880294,0.092,0.047221433,0.0796,0.040856805,19.8700001,10.19880294,0.336078111,0.435481801,0.314889489,12,140,12,214,214,291,0.59,0.36,0.61,3.4933,1.6414,2.8013
02GD015,NITH RIVER NEAR CANNING,Canada,1034.284598,43.18972,-80.45503,615,51.37464108,43.099998,3.600401509,615,51.37464108,0.82800001,0.06916781,0.82800001,0.06916781,1.8099999,0.151200155,5.1500001,0.430210417,2.7,0.225547205,10.25,0.856244018,51.099999,4.268689606,9.79000012,0.817817467,79.9800003,6.681209446,1.43199994,0.11962355,1.15199994,0.096233469,79.9800003,6.681209446,0.422874522,0.466333568,0.410634814,12,140,12,214,214,286,0.49,0.32,0.51,2.7679,1.1853,2.2942
02GD016,GRAND RIVER NEAR MARSVILLE,Canada,663.0145449,43.86172,-80.27222,75,9.773541244,11.2,1.459515492,75,9.773541244,1.23,0.160286076,1.23,0.160286076,1.66,0.216321046,3.1300001,0.407882468,2.04,0.265840322,4.46499995,0.581851482,19.82,2.582821166,5.29000016,0.689360463,24.700001,3.218753047,1.4299999,0.18634884,1.34,0.174620604,24.700001,3.218753047,0.483651833,0.475342558,0.463287138,12,140,12,238,238,277,0.21,0.16,0.22,1.3264,0.6468,1.1497
02GD018,SPEED RIVER BELOW GUELPH,Canada,567.859933,43.53372,-80.25222,54.599998,8.307400387,6.5,0.988976273,54.599998,8.307400387,0.152,0.02312683,0.152,0.02312683,0.211,0.032103691,0.64700001,0.098441178,0.34200001,0.052035368,0.942499995,0.143401559,5.1240001,0.779617619,1.496,0.227616693,6.46700001,0.983955318,0.210199992,0.03198197,0.196599996,0.029912728,6.46700001,0.983955318,0.386857148,0.488379479,0.368308366,12,140,12,214,214,285,0.51,0.43,0.53,2.679,1.374,2.3644
02GD021,GRAND RIVER BELOW SHAND DAM,Canada,784.7567242,43.73094,-80.34094,64.900002,7.145348361,9.0900002,1.000789153,64.900002,7.145348361,0.007,0.000770685,0.007,0.000770685,0.13,0.014312716,0.48899999,0.05383783,0.101,0.011119879,0.954,0.105033315,7.5860002,0.83520204,1.51000004,0.166247704,9.803999725,1.07939894,0.028999999,0.003192837,0.016200001,0.001783585,9.803999725,1.07939894,0.359457782,0.390060642,0.33184888,12,140,12,239,239,319,0.56,0.55,0.56,2.8551,2.405,2.3449
02GD027,NITH RIVER AT NEW HAMBURG,Canada,544.2440143,43.37722,-80.71081,33.099998,5.25470148,7.6100001,1.208105172,33.099998,5.25470148,0.104,0.016510241,0.104,0.016510241,0.31600001,0.050165735,1.14,0.180977645,0.461,0.07318482,1.5599999,0.247653604,7.17199984,1.138571615,1.762,0.279721588,10.7,1.698649826,0.143200006,0.022733333,0.1122,0.01781201,10.7,1.698649826,0.435701859,0.431279604,0.422741594,12,139,12,236,236,286,0.34,0.22,0.37,1.7081,1.2074,1.4773
02GD028,CANAGAGIGUE CREEK NEAR ELMIRA,Canada,114.0597169,43.57992,-80.50919,16.299999,12.34721558,2.05,1.552870766,16.299999,12.34721558,0.021,0.015907457,0.021,0.015907457,0.035999998,0.027269924,0.223,0.168922039,0.134,0.101504723,0.326999995,0.247701821,1.023199998,0.775071885,0.55280001,0.418744866,1.467000055,1.111249512,0.036199998,0.027421424,0.029599999,0.022421938,1.467000055,1.111249512,0.430263205,0.453154081,0.407813797,12,139,12,267,267,285,0.47,0.42,0.49,2.6086,1.2444,2.4449
02GE002,LAUREL CREEK AT WATERLOO,Canada,59.20546677,43.47192,-80.51427,668,974.8288992,111,161.9850416,668,974.8288992,5.1100001,7.45714936,5.1100001,7.45714936,8.0699997,11.77674989,21.299999,31.08361464,11.4,16.63630157,32.75,47.79288391,124.8,182.1237225,32.6400002,47.63235848,156.45,228.3113492,6.6199999,9.660729364,6.19599992,9.041975721,156.45,228.3113492,0.463642369,0.476018476,0.451800622,12,140,12,213,213,286,0.26,0.23,0.27,1.6281,0.8992,1.4008
02GE003,CONESTOGO RIVER AT GLEN ALLAN,Canada,571.127968,43.65483,-80.70217,615,93.03694264,138,20.87658225,615,93.03694264,7.5100002,1.136109688,7.5100002,1.136109688,10.3,1.55817969,29.700001,4.493003723,14.6,2.20868189,46.5,7.034500541,155.6,23.53910289,75.200002,11.37622483,206.35,31.21654165,8.55399994,1.294045531,8.17999972,1.237466935,206.35,31.21654165,0.451127541,0.447447072,0.435226193,15,141,15,214,214,286,0.22,0.26,0.21,1.3916,0.9982,1.2057
02GE005,ERAMOSA RIVER ABOVE GUELPH,Canada,231.4866742,43.54778,-80.18203,33,12.3169077,11.4,4.254931751,33,12.3169077,0.101,0.037697202,0.101,0.037697202,0.198,0.073901446,0.91100001,0.340021304,0.546,0.203788836,1.1,0.41056359,5.78800012,2.160311008,3.292,1.228704853,7.34700009,2.742191575,0.1672,0.062405666,0.138400004,0.051656366,7.34700009,2.742191575,0.424078962,0.460151206,0.426243154,12,216,12,236,236,286,0.46,0.6,0.43,1.7036,1.6224,1.5689
02GE006,ALDER CREEK NEAR NEW DUNDEE,Canada,47.43054788,43.37229,-80.55109,686,1249.625034,136,247.7390738,686,1249.625034,8.1199999,14.79147981,8.1199999,14.79147981,10.8,19.67339703,28.299999,51.55158485,15.5,28.23496797,43.3999995,79.05790939,155.6,283.4426462,59.5200012,108.4222792,195.9,356.8535629,9.22000004,16.79525199,8.70599992,15.8589438,195.9,356.8535629,0.473538169,0.480208667,0.461919015,14,141,14,214,214,286,0.23,0.25,0.23,1.4428,0.9398,1.2574
02GE007,BLUE SPRINGS CREEK NEAR EDEN MILLS,Canada,41.49590148,43.57614,-80.109,44.099998,91.82207619,23.4,48.72192019,44.099998,91.82207619,0.011,0.022903467,0.011,0.022903467,0.097000003,0.20196694,0.671,1.397111472,0.24600001,0.512204823,1.04999995,2.186239904,6.50600012,13.54635977,2.18600004,4.551543567,11.215,23.35112542,0.0484,0.100775254,0.026600001,0.055384749,11.215,23.35112542,0.421586779,0.353702545,0.425676029,12,140,12,236,236,283,0.64,0.82,0.6,2.6021,3.1214,2.2324
02GE008,CONESTOGO RIVER ABOVE DRAYTON,Canada,274.714667,43.78353,-80.63778,20,6.290162877,4.8600001,1.52850961,20,6.290162877,0.039999999,0.012580325,0.039999999,0.012580325,0.1,0.031450814,0.491,0.154423499,0.15099999,0.047490727,0.78,0.245316352,3.292,1.035360809,0.754400004,0.237264945,4.41649989,1.389025183,0.071000002,0.022330079,0.063399999,0.019939816,4.41649989,1.389025183,0.403281839,0.186916452,0.38367803,12,140,12,213,213,285,0.39,0.36,0.4,1.9584,1.6532,1.6383
02GG002,MOOREFIELD CREEK NEAR ROTHSAY,Canada,60.38452387,43.823,-80.71786,193,276.1502274,37.700001,53.94229974,193,276.1502274,0.88200003,1.261992274,0.88200003,1.261992274,1.2,1.716996233,3.5999999,5.150988555,1.8200001,2.604111096,5.375,7.690712292,20.38,29.16031935,9.49400012,13.58430203,32.38499955,46.33743519,1.04399998,1.493786694,0.975999998,1.396490266,32.38499955,46.33743519,0.424712017,0.473664558,0.406340912,12,140,12,271,271,285,0.35,0.33,0.36,2.154,1.3672,1.9284
02GG003,HUNSBURGER CREEK NEAR WILMOT CENTRE,Canada,13.14696105,43.36447,-80.63261,215,1412.950105,58.5,384.4538659,215,1412.950105,1.16,7.623358708,1.16,7.623358708,1.45,9.529198385,5.3099999,34.89658101,2.4300001,15.96962278,8.0150001,52.67346621,34.3599988,225.8091345,18.22,119.7393066,53.6800009,352.777502,1.272,8.359407135,1.226,8.057101531,53.6800009,352.777502,0.469206013,0.446104425,0.465304816,13,140,13,239,239,275,0.32,0.33,0.32,1.8426,1.4847,1.6299
02GG005,SILVER SPRING CREEK NEAR WILMOT CENTRE,Canada,3.651637112,43.38367,-80.63617,43,1017.406683,6.3800001,150.9547613,43,1017.406683,0.39399999,9.32228425,0.39399999,9.32228425,0.463,10.9548673,1.15,27.2097136,0.67799997,16.04190001,1.6,37.85699284,5.73999996,135.8119609,2.49600002,59.0569093,7.55250002,178.696837,0.468399992,11.08263446,0.447,10.57629737,7.55250002,178.696837,0.460069517,0.411046823,0.447477171,12,140,12,213,213,275,0.36,0.22,0.4,1.7448,0.8752,1.5821
02GG006,HUNSBURGER CREEK NEAR HAYSVILLE,Canada,4.821968377,43.36529,-80.63218,79.400002,1422.688752,18.200001,326.107507,79.400002,1422.688752,0.017999999,0.322523872,0.017999999,0.322523872,0.026000001,0.46586786,0.60600001,10.85830449,0.27000001,4.837858534,0.9885,17.71193698,8.3759996,150.0811098,1.976,35.40595596,13.425,240.5490682,0.028999999,0.519621805,0.023,0.41211386,13.425,240.5490682,0.342203551,0.122698269,0.346374518,12,140,12,210,210,275,0.62,0.59,0.62,2.8816,2.8853,2.395
02GG009,HUNSBURGER CREEK NEAR SCHINDELSTEDDLE,Canada,1.767928294,43.38375,-80.62544,151,7379.484815,25.5,1246.204389,151,7379.484815,0.032000002,1.563864429,0.034000002,1.66160595,0.032000002,1.563864429,1.47,71.84001774,0.62400001,30.49535496,2.6700001,130.4849351,19.5600008,955.9121119,5.41000002,264.3908146,26.505,1295.319503,0.094399998,4.613399671,0.068200002,3.332985974,26.505,1295.319503,0.30442955,0.474524421,0.300749017,13,141,13,275,274,275,0.42,0.44,0.42,2.5961,2.1885,2.1945
02GG013,SPEED RIVER AT CAMBRIDGE,Canada,761.5877694,43.42186,-80.33275,70.800003,8.032062101,20.6,2.33701232,70.800003,8.032062101,0.023,0.002609286,0.023,0.002609286,0.028000001,0.003176522,0.31099999,0.035282078,0.086000003,0.00975646,0.69000003,0.078278571,8.13999996,0.923460204,1.242,0.140901422,12.85,1.45779652,0.033,0.003743758,0.030199999,0.003426105,12.85,1.45779652,0.40540388,0.253613326,0.407806779,12,140,12,214,214,291,0.63,0.65,0.63,3.2133,3.9209,2.6856
4159492,"BLACK RIVER NEAR JEDDO, MI",US,1197.787,43.152527,-82.624092,226.8,27.9465288,58.52,7.210894469,226.8,27.9465288,0.4676,0.057618152,0.4676,0.057618152,0.8624,0.106265813,3.136,0.386421139,1.6856,0.207701362,5.558,0.684862465,25.62,3.156922698,11.9,1.466330215,29.414,3.624423273,0.72576,0.089428892,0.66696,0.082183496,29.414,3.624423273,0.457507978,0.477391856,0.454066108,12,140,12,228,228,293,0.43,0.51,0.41,2.2179,2.0275,2.008
4159900,"MILL CREEK NEAR AVOCA, MI",US,438.7401,43.054471,-82.734649,49.84,3.746709711,9.968,0.749341942,49.84,3.746709711,0.1484,0.011155933,0.1484,0.011155933,0.19432,0.014607958,0.7728,0.058095049,0.4144,0.031152418,1.7808,0.133871201,9.1336,0.686616128,4.1496,0.311945157,11.9952,0.901736202,0.220136,0.01654867,0.18872,0.014186979,11.9952,0.901736202,0.462582096,0.479887338,0.347263806,12,141,12,271,271,286,0.29,0.27,0.3,2.0403,1.541,1.8143
4160600,"BELLE RIVER AT MEMPHIS, MI",US,390.8754,42.900862,-82.769091,50.96,25.80950767,15.54,7.870481734,50.96,25.80950767,0.266,0.134719958,0.3136,0.15882774,0.266,0.134719958,0.9492,0.480737533,0.6524,0.330418422,1.9796,1.002600106,9.1392,4.628694123,4.032,2.042070936,13.111,6.640275806,0.35896,0.181801038,0.34608,0.175277755,13.111,6.640275806,0.474974305,0.455996801,0.470179449,12,141,12,288,238,288,0.3,0.32,0.3,1.8444,1.4937,1.6698
4161000,"CLINTON RIVER AT AUBURN HILLS, MI",US,320.796,42.633366,-83.224378,15.876,5.514935683,13.132,4.561736923,15.876,5.514935683,0.6468,0.224682565,0.6468,0.224682565,0.8344,0.289850235,2.912,1.011557868,1.7808,0.618606542,3.976,1.38116555,7.6384,2.6533941,8.456,2.937408424,7.616,2.645612885,0.86856,0.301716587,0.77616,0.269619078,7.616,2.645612885,0.471117161,0.445141845,0.468250257,11,140,11,160,160,293,0.14,0.22,0.11,0.663,0.9002,0.5038
4161820,"CLINTON RIVER AT STERLING HEIGHTS, MI",US,802.8077,42.614478,-83.026593,54.04,8.717299069,46.76,7.542947899,54.04,8.717299069,1.8984,0.306234651,1.8984,0.306234651,2.604,0.42005638,6.076,0.980131553,3.92,0.632342938,8.162,1.316628331,17.584,2.836509749,17.528,2.827476278,17.78,2.868126896,2.60624,0.420417719,2.19296,0.353750706,17.78,2.868126896,0.477535442,0.445061332,0.471323433,12,140,12,238,238,292,0.18,0.28,0.13,0.7453,0.9633,0.6059
4163400,"PLUM BROOK AT UTICA, MI",US,47.04358,42.601423,-83.071316,7.392,2.993420082,6.188,2.505855448,7.392,2.993420082,0.02296,0.009297744,0.02296,0.009297744,0.05964,0.024151457,0.2828,0.114520996,0.14784,0.059868402,0.4004,0.162143588,1.1788,0.477359793,1.15304,0.466928178,1.20666,0.488641812,0.051016,0.020659134,0.037072,0.015012455,1.20666,0.488641812,0.453999099,0.438147813,0.474279162,11,140,11,238,238,284,0.48,0.69,0.39,1.6895,1.9344,1.5486
4164000,"CLINTON RIVER NEAR FRASER, MI",US,1143.005,42.577257,-82.951311,103.04,161.1138067,71.12,111.2035514,103.04,161.1138067,2.3268,3.638194929,2.3268,3.638194929,3.416,5.341272941,8.932,13.96611531,6.132,9.588022737,11.27,17.62182261,29.176,45.61972462,30.968,48.42170387,27.8908,43.61018013,3.3712,5.271223459,3.0912,4.833414202,27.8908,43.61018013,0.480987405,0.432246361,0.480930159,12,140,12,238,238,291,0.3,0.44,0.22,0.9565,1.0945,0.8691
4164100,"EAST POND CREEK AT ROMEO, MI",US,54.9972,42.82253,-83.02021,4.312,0.120857631,2.1224,0.059487068,4.312,0.120857631,0.0798,0.002236651,0.0798,0.002236651,0.14056,0.003939645,0.3276,0.009182041,0.20244,0.00567403,0.4508,0.012635116,1.18384,0.033180913,1.00688,0.028221042,1.27918,0.035853123,0.110432,0.003095211,0.09856,0.00276246,1.27918,0.035853123,0.483622637,0.479695083,0.472411098,12,140,12,238,238,286,0.16,0.19,0.16,0.9657,1.086,0.8587
4164300,"EAST BRANCH COON CREEK AT ARMADA, MI",US,32.8032,42.845863,-82.884928,7.336,0.145028807,1.8284,0.036146493,7.336,0.145028807,0.00392,7.75E-05,0.00392,7.75E-05,0.00476,9.41E-05,0.0266,0.000525868,0.01484,0.000293379,0.09576,0.001893124,0.58296,0.011524808,0.30408,0.006011499,0.78428,0.015504797,0.00504,9.96E-05,0.00504,9.96E-05,0.78428,0.015504797,0.459179374,0.398790056,0.453317346,12,140,12,208,208,314,0.54,0.53,0.55,3.3779,2.774,3.0033
4164500,"NORTH BRANCH CLINTON RIVER NEAR MT. CLEMENS, MI",US,511.9173,42.6292,-82.88881,73.92,42.98316806,18.648,10.84348103,73.92,42.98316806,0.09156,0.053240515,0.09156,0.053240515,0.3052,0.177468383,1.4112,0.820587754,0.6468,0.376102721,2.912,1.693276317,11.2224,6.525626424,5.6448,3.282351015,17.1486,9.971606545,0.230832,0.134224711,0.159544,0.092772004,17.1486,9.971606545,0.475193459,0.49079184,0.471545256,13,141,13,238,238,284,0.33,0.34,0.34,2.0141,1.6147,1.8202
4165500,"CLINTON RIVER AT MORAVIAN DRIVE AT MT. CLEMENS, MI",US,1892.565,42.595867,-82.90881,215.88,4.888223176,96.6,2.187337219,215.88,4.888223176,2.996,0.067839154,2.996,0.067839154,4.2,0.095101618,12.096,0.27389266,7.868,0.178157031,14.98,0.339195772,52.528,1.189404238,42.168,0.954820247,61.138,1.384362556,4.2,0.095101618,3.808,0.086225467,61.138,1.384362556,0.421713207,0.458659829,0.459802585,12,140,12,238,238,291,0.31,0.42,0.25,1.1936,1.1901,1.1557
4166500,"RIVER ROUGE AT DETROIT, MI",US,475.9533,42.372259,-83.255485,87.92,37.27393609,71.12,30.15152792,87.92,37.27393609,0.6356,0.269464442,0.6356,0.269464442,1.0304,0.436841034,2.94,1.24642143,1.9068,0.808393327,3.332,1.412610954,15.54,6.588227558,17.332,7.347951096,11.5332,4.889533209,0.88928,0.377012806,0.74816,0.317184577,11.5332,4.889533209,0.422183124,0.482591563,0.457396111,12,140,12,189,189,284,0.55,0.71,0.44,1.7034,1.8669,1.5939
4167000,"MIDDLE RIVER ROUGE NEAR GARDEN CITY, MI",US,229.4964,42.348093,-83.311597,37.52,37.84282018,31.08,31.34741075,37.52,37.84282018,0.5936,0.598707304,0.5936,0.598707304,0.7196,0.725791402,1.9488,1.965567377,1.4392,1.451582804,2.3618,2.382120808,10.4216,10.51126692,11.34,11.43756879,8.9712,9.048387751,0.73976,0.746124858,0.7084,0.714495038,8.9712,9.048387751,0.478984723,0.472486426,0.482497956,12,140,12,238,238,308,0.39,0.5,0.33,1.3568,1.505,1.265
4168580,"ECORSE RIVER AT DEARBORN HEIGHTS, MI",US,27.5535,42.26948,-83.28965,4.62,0.298309344,4.032,0.2603427,4.62,0.298309344,0.014,0.000903968,0.01428,0.000922047,0.014,0.000903968,0.09576,0.006183139,0.05908,0.003814744,0.12796,0.008262265,1.0108,0.065266469,1.26392,0.081610205,0.80052,0.051688874,0.017416,0.001124536,0.017584,0.001135383,0.80052,0.051688874,0.407851803,0.349090361,0.39706286,11,140,11,284,233,284,0.77,1,0.62,2.1955,2.2763,2.1458
4172000,"HURON RIVER NEAR HAMBURG, MI",US,829.2179,42.465312,-83.799943,29.68,9.772599677,26.908,8.859875745,29.68,9.772599677,2.2204,0.731101089,2.2204,0.731101089,3.164,1.041796003,6.44,2.120469741,4.536,1.493548253,8.876,2.92256047,19.4824,6.414881939,18.3064,6.027665725,19.6252,6.461901051,2.8896,0.951445553,2.47072,0.813522826,19.6252,6.461901051,0.482756184,0.471190516,0.470608979,15,143,15,239,239,275,0.06,0.09,0.06,0.6597,0.7968,0.5482
4173500,"MILL CREEK NEAR DEXTER, MICH.                  .",US,326.322,42.300037,-83.898555,24.976,6.841933851,24.976,6.841933851,21.728,5.952175637,0.6412,0.175650544,0.6412,0.175650544,0.7196,0.197127466,2.2204,0.608257124,1.6408,0.449481305,3.115,0.853324149,8.568,2.347120805,7.1064,1.946729609,9.142,2.504362559,0.75376,0.206485268,0.70392,0.192832082,9.142,2.504362559,0.488726359,0.475615613,0.476055939,140,140,12,240,240,284,0.19,0.24,0.18,1.0677,1.3071,0.9279
4174500,"HURON RIVER AT ANN ARBOR, MI",US,1928.162,42.286149,-83.733274,89.88,5.868401139,89.88,5.868401139,64.68,4.223055025,4.676,0.305303112,4.676,0.305303112,5.292,0.345522684,14.476,0.945159934,10.78,0.703842504,19.376,1.265088345,49.56,3.235847357,45.864,2.994529927,49.938,3.260527549,5.432,0.354663496,5.0568,0.33016612,49.938,3.260527549,0.461960129,0.454889099,0.466916061,140,140,89,271,271,277,0.1,0.16,0.08,0.7402,0.9127,0.6273
4174518,"MALLETTS CREEK AT ANN ARBOR, MI",US,26.2431,42.264761,-83.688273,6.944,1.176518865,6.076,1.029454007,6.944,1.176518865,0.04676,0.007922526,0.06496,0.011006144,0.04676,0.007922526,0.17836,0.030219456,0.13468,0.022818773,0.20174,0.034180719,1.09592,0.185681243,1.27568,0.216137901,0.89586,0.151785166,0.071288,0.012078294,0.069384,0.011755701,0.89586,0.151785166,0.425643737,0.367726473,0.446611648,88,139,88,319,236,319,0.62,0.67,0.58,1.9855,1.8703,2.0812
4175600,"RIVER RAISIN NEAR MANCHESTER, MI",US,330.7972,42.168095,-84.076058,13.944,8.093515676,13.524,7.849735083,13.944,8.093515676,0.7476,0.433929455,0.7476,0.433929455,0.8792,0.510314041,2.562,1.487061615,1.7528,1.017377673,3.962,2.299663591,9.044,5.249408762,9.2512,5.369673854,8.519,4.944683021,0.97272,0.564595853,0.90216,0.523640713,8.519,4.944683021,0.482168467,0.486798323,0.455730983,89,140,89,240,240,284,0.1,0.12,0.1,0.7496,0.9414,0.6257
4176000,"RIVER RAISIN NEAR ADRIAN, MI",US,1195.18,41.904214,-83.980499,114.8,68.34110631,114.8,68.34110631,88.48,52.67265755,2.7384,1.630185414,2.7384,1.630185414,3.108,1.850210439,7.672,4.567186129,5.292,3.150358315,12.18,7.250824694,30.912,18.40209302,25.3568,15.09505021,32.424,19.30219539,3.248,1.933553252,3.108,1.850210439,32.424,19.30219539,0.46809775,0.454171526,0.457090508,141,141,13,241,241,284,0.17,0.19,0.17,1.04,1.4264,0.8229
4176500,"RIVER RAISIN NEAR MONROE, MI",US,2685.966,41.960601,-83.531046,224.56,519.7867881,224.56,519.7867881,197.4,456.9198075,2.996,6.934811263,2.996,6.934811263,3.248,7.518113145,11.228,25.9893394,7.532,17.43424514,23.268,53.8582071,84.56,195.730187,61.656,142.7145271,87.304,202.0816964,3.5336,8.179188611,3.472,8.036603706,87.304,202.0816964,0.459955898,0.413726153,0.463926727,141,141,14,241,241,276,0.16,0.19,0.16,1.3513,1.8898,1.091
4177000,Ottawa River at University of Toledo Toledo OH,US,343.7883,41.659681,-83.612547,52.08,13.59917005,52.08,13.59917005,47.32,12.35623515,0.0588,0.015353902,0.06132,0.016011926,0.0588,0.015353902,1.1172,0.291724132,0.4424,0.115519832,2.3044,0.601726718,8.6184,2.250443301,4.8216,1.259019937,10.7478,2.806473883,0.081088,0.021173762,0.069328,0.018102981,10.7478,2.806473883,0.481858217,0.481764674,0.479026202,141,141,13,306,263,306,0.46,0.57,0.43,2.08,3.2577,1.644
4177720,"FISH CREEK AT HAMILTON, IND.",US,84.11671,41.532273,-84.903573,10.64,2.485714575,9.604,2.243684472,10.64,2.485714575,0.03164,0.00739173,0.03164,0.00739173,0.04144,0.009681204,0.21896,0.051153389,0.09604,0.022436845,0.812,0.18969927,3.1192,0.728706852,2.04288,0.477257198,3.4132,0.79739107,0.04144,0.009681204,0.035168,0.008215941,3.4132,0.79739107,0.463509816,0.498105649,0.467036054,12,140,12,234,234,283,0.27,0.32,0.26,1.57,2.5086,1.2185
4178000,"ST. JOSEPH RIVER NEAR NEWVILLE, IN",US,1600.184,41.385328,-84.801626,156.8,23.90455737,156.8,23.90455737,118.16,18.01379145,1.3692,0.20873801,1.4784,0.225385827,1.3692,0.20873801,4.816,0.734211405,3.192,0.486628489,14.518,2.213305893,64.456,9.826480549,50.792,7.743369121,65.744,10.02283941,1.59712,0.243484992,1.59936,0.243826485,65.744,10.02283941,0.461360915,0.419036444,0.449762844,142,142,15,286,274,286,0.17,0.2,0.17,1.4592,2.0964,1.1631
4179520,"CEDAR CREEK AT 18TH STREET AT AUBURN, IN",US,248.2362,41.36005,-85.04914,24.136,14.50624455,24.08,14.47258737,24.136,14.50624455,0.12292,0.07387751,0.12292,0.07387751,0.12404,0.074550654,0.6664,0.400520441,0.4536,0.272623157,2.0538,1.234377074,7.5264,4.523524982,4.6816,2.813740242,8.4588,5.083917028,0.12992,0.078084657,0.12936,0.077748086,8.4588,5.083917028,0.472428472,0.498695611,0.413001606,12,140,12,265,265,289,0.31,0.29,0.32,1.6291,2.2963,1.339
4180000,"CEDAR CREEK NEAR CEDARVILLE, IND.",US,697.6814,41.218938,-85.076359,92.4,22.54516305,92.4,22.54516305,92.4,22.54516305,0.5544,0.135270978,0.5544,0.135270978,0.5936,0.144835593,2.0132,0.49121128,1.442,0.351841181,6.048,1.4756834,26.4712,6.458847622,14.2968,3.488351593,30.002,7.320346125,0.67032,0.16355491,0.6664,0.162598449,30.002,7.320346125,0.471248146,0.393260807,0.480133774,12,140,12,269,269,283,0.36,0.34,0.38,1.6672,2.3969,1.3638
4180500,"ST. JOSEPH RIVER NEAR FORT WAYNE, IN",US,2716.033,41.177271,-85.055803,185.64,104.1247337,185.64,104.1247337,185.36,103.9676828,1.1088,0.621921486,2.5704,1.441727082,1.1088,0.621921486,6.524,3.659285513,5.04,2.826915847,29.26,16.411817,108.304,60.74728054,91.84,51.51268877,109.27,61.28910607,2.8896,1.620765086,2.9008,1.627047121,109.27,61.28910607,0.473743218,0.475025599,0.474020051,140,140,12,292,240,292,0.2,0.2,0.21,1.3301,1.9551,1.0536
4180988,St. Marys River at Rockford OH,US,761.9985,40.69477,-84.646625,84,71.80010139,84,71.80010139,80.36,68.68876367,0.21896,0.187158931,0.21896,0.187158931,0.27216,0.232632329,2.6796,2.290423234,1.148,0.981268052,8.708,7.443277178,36.4,31.11337727,15.288,13.06761845,46.018,39.33448888,0.3304,0.282413732,0.252112,0.215496038,46.018,39.33448888,0.466797257,0.495584975,0.4647421,142,142,13,270,270,280,0.34,0.36,0.33,1.5303,2.6898,1.1557
4181500,"ST. MARYS RIVER AT DECATUR, IND.",US,1490.114,40.848103,-84.937744,138.32,40.5805246,133.28,39.101882,138.32,40.5805246,0.5348,0.156900409,0.574,0.168400962,0.5348,0.156900409,4.648,1.363637061,1.7752,0.520810781,15.386,4.513967261,81.256,23.83900453,34.048,9.989052209,83.706,24.55778913,0.65072,0.190909189,0.65296,0.191566363,83.706,24.55778913,0.45099982,0.374949697,0.44580368,12,141,12,291,274,291,0.28,0.32,0.27,1.5093,2.6519,1.133
4182000,"ST. MARYS RIVER NEAR FORT WAYNE, IND.",US,1849.108,40.987826,-85.111914,175,162.3138619,164.36,152.4451791,175,162.3138619,0.5544,0.514210314,0.5544,0.514210314,0.6636,0.615494164,5.18,4.804490311,1.7724,1.643914793,15.974,14.81600931,95.76,88.81814521,43.232,40.09801643,101.08,93.75248661,0.69776,0.64717783,0.64456,0.597834416,101.08,93.75248661,0.40514754,0.366791331,0.335736326,12,141,12,240,240,275,0.29,0.32,0.28,1.5836,2.8388,1.187
4182950,"MAUMEE RIVER AT COLISEUM BLVD AT FORT WAYNE, IN",US,4869.313,41.079771,-85.08747,394.8,192.534278,378,184.34133,394.8,192.534278,3.22,1.570315033,3.22,1.570315033,3.388,1.652244513,19.292,9.408235285,9.856,4.806529492,45.08,21.98441046,203.448,99.21660026,144.816,70.62321175,213.304,104.0231298,3.7352,1.821565438,3.6568,1.783331681,213.304,104.0231298,0.427893454,0.42784438,0.278791189,12,141,12,239,239,276,0.23,0.24,0.23,1.4142,2.2264,1.0912
4183000,"MAUMEE RIVER AT NEW HAVEN, IND.",US,5039.881,41.085049,-85.02219,408.8,53.14946348,392,50.96523895,408.8,53.14946348,4.228,0.549696506,4.312,0.560617629,4.228,0.549696506,20.58,2.675675045,11.172,1.45250931,48.72,6.334251127,207.928,27.03341889,143.808,18.69696195,216.048,28.08912741,4.5976,0.597749445,4.5248,0.588284473,216.048,28.08912741,0.438183412,0.465647698,0.434181023,13,141,13,276,239,276,0.23,0.23,0.23,1.3875,2.1716,1.072
4184500,BEAN C AT POWERS OH,US,534.7152,41.677551,-84.23217,99.4,64.05201483,99.4,64.05201483,66.64,42.94191417,0.3892,0.250795213,0.3892,0.250795213,0.6832,0.440244834,2.912,1.876453392,1.694,1.091590675,5.362,3.455200236,18.9728,12.22581556,15.4952,9.984897185,19.4054,12.50457715,0.71792,0.462617932,0.60368,0.389003222,19.4054,12.50457715,0.478732628,0.443534333,0.462316339,140,140,12,226,226,285,0.29,0.34,0.27,1.6304,2.3305,1.1756
4185000,Tiffin River at Stryker OH,US,1064.001,41.504496,-84.429672,147.56,100.6240418,147.56,100.6240418,86.8,59.19061284,0.812,0.553718636,0.9016,0.614818624,0.812,0.553718636,3.388,2.310343275,2.2148,1.510315315,7.574,5.164858314,40.6,27.68593181,36.4,24.8218699,42.798,29.18479088,0.95312,0.649951116,1.00128,0.68279236,42.798,29.18479088,0.490424825,0.392524775,0.489195671,141,141,14,285,226,285,0.23,0.27,0.22,1.6927,2.4796,1.2208
4185440,Unnamed Tributary to Lost Creek near Farmers OH,US,11.0475,41.361717,-84.691067,2.4024,2.084826723,1.9768,1.71548679,2.4024,2.084826723,0,0,0,0,0.00084,0.00072896,0.00672,0.005831683,0.00224,0.001943894,0.04872,0.042279703,0.31472,0.27311716,0.054992,0.047722607,0.43344,0.376143563,0,0,0,0,0.43344,0.376143563,0.32990028,0.294149468,0.326774204,11,139,11,213,213,280,0.78,0.77,0.79,3.1957,5.5461,2.5745
4186500,Auglaize River near Fort Jennings OH,US,858.4164,40.948662,-84.266059,128.24,2.130544024,128.24,2.130544024,119.28,1.981685053,0.13552,0.002251492,0.13552,0.002251492,0.17052,0.002832972,2.6936,0.044750728,1.1424,0.018979519,6.762,0.112342005,46.424,0.771275544,13.4512,0.22347453,59.99,0.99665733,0.240576,0.003996863,0.20916,0.003474927,59.99,0.99665733,0.074182632,0.426737418,0.222899191,141,141,12,251,251,278,0.54,0.5,0.55,2.007,3.582,1.5506
4188337,Blanchard River below Mt. Blanchard OH,US,369.3456,40.924499,-83.557151,49,25.64144788,49,25.64144788,48.44,25.34840276,0.0098,0.00512829,0.0098,0.00512829,0.04592,0.0240297,0.9996,0.523085537,0.19992,0.104617107,2.2064,1.154597768,17.584,9.201616726,3.0296,1.585374092,23.6376,12.36943446,0.041384,0.021656034,0.02436,0.012747463,23.6376,12.36943446,0.385246258,0.478110431,0.389979703,141,141,89,226,226,275,0.71,0.82,0.7,2.1164,4.0839,1.6307
4188400,Blanchard River above Findlay OH,US,606.7548,41.033943,-83.579374,86.24,19.17216598,75.6,16.80676887,86.24,19.17216598,0.10724,0.023840713,0.10724,0.023840713,0.1498,0.033302301,1.2768,0.283847652,0.5292,0.117647382,3.458,0.768754058,27.2328,6.054171632,6.3224,1.405543856,36.512,8.117046893,0.199472,0.044344971,0.135464,0.03011524,36.512,8.117046893,0.458514076,0.453786845,0.462546264,89,141,89,226,226,113,0.62,0.57,0.63,2.169,3.6754,1.7243
4188433,Lye Creek above Findlay OH,US,48.3822,40.982554,-83.585763,11.564,2.589321627,11.564,2.589321627,11.284,2.526626188,0,0,0,0,0,0,0.11816,0.026457475,0.00084,0.000188086,0.24682,0.055266029,2.32064,0.519619798,0.57904,0.129654168,3.1178,0.698113712,0,0,0,0,3.1178,0.698113712,0.355400561,0.170722126,0.371910673,140,140,89,184,184,275,0.84,1.14,0.78,2.6163,5.2059,1.991
4188496,Eagle Creek above Findlay OH,US,134.7102,40.97922,-83.653265,38.64,19.32175363,38.08,19.04172821,38.64,19.32175363,0,0,0,0,0.06048,0.030242745,0.378,0.189017155,0.07364,0.036823342,0.8736,0.436839647,9.1896,4.595217058,1.83064,0.915403081,12.8086,6.404881302,0.0168,0.008400762,0,0,12.8086,6.404881302,0.389718754,0.228132695,0.402566113,89,140,89,226,226,277,0.89,1.12,0.85,2.5568,5.0044,1.974
4189000,Blanchard River near Findlay OH,US,909.2952,41.055886,-83.687989,113.12,58.06183105,100.52,51.59454789,113.12,58.06183105,0.574,0.294620677,0.574,0.294620677,0.5768,0.296057851,2.478,1.271899022,1.26,0.646728316,6.048,3.104295918,37.632,19.31561904,11.8608,6.087869216,52.864,27.1338458,0.66976,0.343772029,0.64736,0.332274637,52.864,27.1338458,0.400761589,0.381587072,0.358192476,89,141,89,203,203,319,0.55,0.52,0.56,1.8847,2.9846,1.5104
4191500,Auglaize River near Defiance OH,US,6038.764,41.237549,-84.399114,842.8,70.40414228,842.8,70.40414228,663.6,55.43449077,0.7476,0.062451515,1.1116,0.09285862,0.7476,0.062451515,13.3,1.111028823,6.16,0.514581771,38.08,3.181050947,268.576,22.43576521,88.536,7.395943452,331.1,27.65877018,2.07704,0.173507617,2.41248,0.201528934,331.1,27.65877018,0.436472965,0.471379972,0.449621789,141,141,13,289,273,289,0.42,0.45,0.42,1.9548,3.5446,1.4439
4192500,Maumee River near Defiance OH,US,14248.29,41.291993,-84.281057,1542.8,201.0482591,1542.8,201.0482591,1260,164.1954929,5.46,0.711513803,5.46,0.711513803,5.572,0.726108957,38.64,5.035328449,18.592,2.422795717,115.92,15.10598535,561.68,73.19470195,322,41.96107041,617.54,80.47403546,7.6608,0.998308597,8.008,1.043553577,617.54,80.47403546,0.464694473,0.497453717,0.472647307,141,141,13,273,273,275,0.29,0.3,0.29,1.6302,2.8788,1.1916
4193500,Maumee River at Waterville OH,US,16409.35,41.500053,-83.712714,1845.2,280.7475413,1845.2,280.7475413,1514.8,230.4771166,6.216,0.945765617,6.216,0.945765617,6.272,0.954286028,47.32,7.199747266,24.024,3.655256304,142.24,21.64184385,714,108.6352398,346.08,52.65613977,768.18,116.8787374,8.1032,1.232903467,8.4728,1.289138179,768.18,116.8787374,0.489592769,0.499029564,0.48822843,141,141,13,274,274,275,0.28,0.3,0.28,1.6452,2.8626,1.2201
4195500,Portage River at Woodville OH,US,1080.029,41.449496,-83.361316,257.6,28.36119693,257.6,28.36119693,196.56,21.64082636,0.16632,0.018311468,0.16632,0.018311468,0.294,0.032368757,2.996,0.329853051,1.0108,0.111286871,6.566,0.722902248,39.872,4.389820047,17.2032,1.894034717,53.186,5.855662345,0.24444,0.02691231,0.207536,0.02284926,53.186,5.855662345,0.407706835,0.499781598,0.448558195,141,141,13,189,189,277,0.55,0.63,0.53,2.5079,4.4112,1.8555
4195820,Portage River near Elmore OH,US,1266.16,41.491162,-83.224645,217.56,34.53815477,217.56,34.53815477,199.36,31.64886255,0.2576,0.040894598,0.2576,0.040894598,0.308,0.048895715,4.228,0.67120481,1.1648,0.184914703,8.526,1.353522282,43.512,6.907630955,21.2856,3.379138386,63.56,10.09029747,0.35,0.055563312,0.34048,0.05405199,63.56,10.09029747,0.228524408,0.147646469,0.466972119,142,142,13,228,228,286,0.49,0.5,0.49,2.2272,3.8523,1.6972
4196000,Sandusky River near Bucyrus OH,US,230.8833,40.803669,-83.005744,44.24,33.51170864,44.24,33.51170864,35.28,26.72452714,0.05292,0.040086791,0.05292,0.040086791,0.10304,0.078052587,1.5624,1.183514773,0.4788,0.362690011,2.3758,1.799663594,13.5016,10.22743412,9.2792,7.028974837,16.282,12.33358138,0.104776,0.079367604,0.073024,0.055315529,16.282,12.33358138,0.37953093,0.312451473,0.390367691,140,140,304,267,267,285,0.71,0.84,0.67,1.707,2.6312,1.3571
4196500,SANDUSKY R NR UPPER SANDUSKY OH,US,764.8281,40.850612,-83.256308,115.64,168.7563082,115.64,168.7563082,85.68,125.0349402,0.15456,0.225553226,0.15456,0.225553226,0.2002,0.292156805,4.816,7.028107753,1.442,2.104346217,6.944,10.13355071,37.856,55.24419582,19.4432,28.373942,41.734,60.90345701,0.236264,0.344785891,0.191072,0.278836089,41.734,60.90345701,0.426446474,0.482694189,0.43620771,141,141,80,267,267,289,0.53,0.53,0.54,1.6355,2.6591,1.261
4196800,Tymochtee Creek at Crawford OH,US,608.067,40.922833,-83.348812,90.72,13.72408364,90.72,13.72408364,52.08,7.878640606,0.05656,0.008556373,0.05656,0.008556373,0.22036,0.033335969,1.6632,0.2516082,0.4172,0.063113841,4.396,0.66502504,28.8736,4.367986125,10.0352,1.518120857,32.046,4.84790547,0.114184,0.017273708,0.081312,0.012300845,32.046,4.84790547,0.400415354,0.432452068,0.394376138,142,142,81,213,213,292,0.49,0.55,0.47,1.8401,3.6555,1.2929
4197100,Honey Creek at Melmore OH,US,388.2105,41.022278,-83.109638,67.48,25.18621005,47.32,17.66169916,67.48,25.18621005,0.0728,0.027171845,0.0728,0.027171845,0.1106,0.041280303,2.044,0.762901798,0.588,0.219464901,3.192,1.19138089,17.9816,6.711445682,10.892,4.06532602,21.9478,8.191788692,0.10612,0.039608189,0.0826,0.030829593,21.9478,8.191788692,0.410761479,0.484527379,0.413267527,89,141,89,269,269,292,0.55,0.6,0.54,1.7001,2.4497,1.3921
4197170,Rock Creek at Tiffin OH,US,95.20831,41.113666,-83.168252,37.8,68.85688962,10.416,18.97389847,37.8,68.85688962,0.02212,0.040294032,0.02212,0.040294032,0.03752,0.068346839,0.2044,0.372337255,0.063,0.114761483,0.4214,0.767626807,3.7296,6.793879776,0.92176,1.679088005,4.7292,8.614761968,0.038696,0.070489053,0.032984,0.060084012,4.7292,8.614761968,0.398269323,0.338189826,0.398998156,89,140,89,188,188,289,0.87,0.83,0.88,3.0184,3.443,2.5443
4198000,Sandusky River near Fremont OH,US,3243.828,41.307831,-83.158809,324.8,676.2769093,313.6,652.9570158,324.8,676.2769093,1.2432,2.58850817,1.2488,2.600168117,1.2432,2.58850817,16.716,34.80494093,6.216,12.94254085,27.006,56.23009302,123.872,257.9180213,60.984,126.9768197,160.524,334.2323725,1.53608,3.198323383,1.54504,3.216979298,160.524,334.2323725,0.442883753,0.409299415,0.44012182,89,141,89,293,241,293,0.37,0.34,0.38,1.5144,2.3576,1.1935
4199000,Huron River at Milan OH,US,947.3742,41.301719,-82.606844,246.68,77.58286892,206.08,64.81383828,246.68,77.58286892,0.476,0.149705876,0.476,0.149705876,0.6748,0.212230095,5.684,1.78766429,2.1756,0.684243918,8.386,2.637465294,43.12,13.56159116,22.26,7.000951282,53.298,16.76265505,0.70896,0.222973694,0.6272,0.197259508,53.298,16.76265505,0.285282882,0.364061575,0.231254117,89,140,89,271,271,285,0.66,0.71,0.64,1.9121,2.8054,1.5708
4199155,Old Woman Creek at Berlin Rd near Huron OH,US,60.3603,41.34838,-82.51378,16.324,23.35687209,7.504,10.73694978,16.324,23.35687209,0.0014,0.002003162,0.0014,0.002003162,0.02464,0.035255656,0.2828,0.404638779,0.03052,0.043668938,0.4522,0.647021414,2.06416,2.953462453,1.04664,1.497564114,2.80028,4.006725175,0.003416,0.004887716,0.0014,0.002003162,2.80028,4.006725175,0.376225937,0.411583366,0.379912789,89,136,89,228,228,283,0.72,0.76,0.72,2.378,3.486,1.9673
4199500,VERMILION R NR VERMILION OH,US,672.3603,41.38199,-82.316827,188.16,1236.561357,55.72,366.1840924,188.16,1236.561357,0.056,0.368024213,0.056,0.368024213,0.2282,1.49969867,4.06,26.68175548,0.7084,4.6555063,6.58,43.24284508,31.416,206.4615838,18.8104,123.6193333,42.476,279.1463659,0.14392,0.945822229,0.091504,0.601351565,42.476,279.1463659,0.439942967,0.435358096,0.396454383,89,140,89,238,238,292,0.62,0.65,0.62,1.8686,2.4661,1.535
4200500,Black River at Elyria OH,US,1026.93,41.380324,-82.104593,277.2,6558.724009,125.16,2961.363265,277.2,6558.724009,0.26292,6.220850348,0.26292,6.220850348,0.6272,14.83994119,5.74,135.8119618,1.106,26.1686463,10.136,239.8240496,64.904,1535.668915,29.792,704.8972067,67.76,1603.243647,0.40936,9.685711618,0.33656,7.963218444,67.76,1603.243647,0.409312944,0.296384294,0.412668302,89,140,89,238,238,285,0.64,0.72,0.62,1.8895,2.7937,1.5401
4201500,Rocky River near Berea OH,US,690.6969,41.406715,-81.887082,361.2,6471.979399,200.76,3597.216457,361.2,6471.979399,0.6328,11.33850654,0.6328,11.33850654,1.218,21.82411658,5.768,103.3509889,2.6152,46.85913767,9.128,163.5554484,48.552,869.9544402,31.752,568.9321425,52.696,944.2066069,0.90832,16.27527223,0.8148,14.59958144,52.696,944.2066069,0.392385985,0.330460357,0.397587381,89,252,89,237,237,286,0.77,0.77,0.77,2.1581,2.8624,1.8447
4202000,Cuyahoga River at Hiram Rapids OH,US,390.1275,41.34061,-81.166766,51.24,2504.137761,28.28,1382.065103,51.24,2504.137761,1.8312,89.49213638,1.8312,89.49213638,2.548,124.5226974,6.44,314.7276968,3.164,154.6270858,7.77,379.725808,15.6744,766.0198463,13.3504,652.4441992,17.6932,864.6801373,2.22824,108.8957831,1.98296,96.90876297,17.6932,864.6801373,0.474528943,0.469258822,0.464681446,90,139,90,191,191,314,0.15,0.17,0.15,0.7995,0.8603,0.6862
4206000,Cuyahoga River at Old Portage OH,US,1047.329,41.135611,-81.547062,81.76,9.275443073,52.64,5.971860609,81.76,9.275443073,3.892,0.441536502,3.892,0.441536502,4.088,0.463772154,13.832,1.569201671,8.036,0.911661699,17.36,1.969443392,35.112,3.983358087,26.1016,2.961153436,43.134,4.893431525,4.452,0.505066934,4.3176,0.489819631,43.134,4.893431525,0.47037449,0.477571047,0.443391635,91,140,91,238,238,284,0.16,0.21,0.14,0.7376,0.7839,0.6361
4207200,Tinkers Creek at Bedford OH,US,222.1038,41.384499,-81.527342,52.64,3.797082453,51.24,3.696096217,52.64,3.797082453,0.7112,0.051301008,0.7112,0.051301008,0.84,0.060591741,3.528,0.254485313,1.7472,0.126030822,4.298,0.310027743,16.1616,1.165785102,15.7136,1.133469507,16.3618,1.180226134,0.80416,0.058006494,0.75208,0.054249806,16.3618,1.180226134,0.423668104,0.438975952,0.42865356,89,251,89,235,235,286,0.49,0.59,0.45,1.188,1.627,0.9545
4208000,Cuyahoga River at Independence OH,US,1837.508,41.395331,-81.629848,316.4,62.30786746,197.12,38.81835282,316.4,62.30786746,5.936,1.168961761,5.936,1.168961761,7.224,1.422604407,28.56,5.624249983,16.128,3.176047049,35,6.892463215,82.32,16.21107348,74.2,14.61202201,90.3,17.78255509,7.4424,1.465613378,6.608,1.301297055,90.3,17.78255509,0.461515406,0.418693857,0.446232793,89,251,89,235,235,284,0.32,0.39,0.3,0.9033,1.1611,0.7459
4208460,Mill Creek at Garfield Hts OH,US,46.7658,41.42394,-81.63763,32.48,7.179454118,32.48,7.179454118,24.696,5.458860803,0.10052,0.022219173,0.10052,0.022219173,0.13608,0.030079437,0.3724,0.082316155,0.21812,0.048213748,0.4676,0.103359383,3.304,0.730323781,3.7016,0.818210202,2.8126,0.621703591,0.137928,0.030487923,0.11368,0.025128089,2.8126,0.621703591,0.324661015,0.247321255,0.376102646,251,251,89,228,228,283,1.03,1.27,0.85,2.5296,2.999,2.0737
4208504,Cuyahoga River near Newburgh Heights OH,US,2043.611,41.46255,-81.68096,428.4,115.3809898,232.96,62.74312647,428.4,115.3809898,6.888,1.855145326,6.888,1.855145326,13.048,3.514218382,38.64,10.4069128,21.896,5.897250589,46.34,12.48075412,116.536,31.38664572,95.816,25.80612726,118.524,31.92207384,12.0456,3.244241948,9.744,2.624351925,118.524,31.92207384,0.461111423,0.452374935,0.44227381,89,252,89,226,226,286,0.34,0.41,0.31,0.879,1.1032,0.7356
4209000,Chagrin River at Willoughby OH,US,637.3935,41.630881,-81.403445,208.04,22.38974041,128.24,13.80148197,208.04,22.38974041,1.0556,0.113606085,1.0556,0.113606085,1.8284,0.196776588,8.428,0.907040628,3.444,0.370651153,12.278,1.321386429,45.584,4.905854291,36.232,3.899370671,51.044,5.493471973,1.42464,0.153323014,1.21128,0.130360723,51.044,5.493471973,0.380612771,0.406373497,0.366131843,89,251,89,236,236,286,0.6,0.71,0.56,1.4255,2.0132,1.1644
4212100,Grand River near Painesville OH,US,1784.892,41.718934,-81.227879,235.2,431.967125,223.72,410.8830153,235.2,431.967125,0.5852,1.074775347,0.5852,1.074775347,1.0388,1.907854802,20.72,38.05424672,5.796,10.64490415,33.46,61.45246599,100.8,185.1287678,44.072,80.94241127,116.564,214.0808501,1.00744,1.850259185,0.6692,1.22904932,116.564,214.0808501,0.354942443,0.308520565,0.352869762,89,137,89,236,236,286,0.35,0.49,0.32,1.1645,1.9204,0.853
4213000,Conneaut Creek at Conneaut OH,US,455.2974,41.926999,-80.603966,80.08,6.053264859,80.08,6.053264859,68.88,5.206654389,0.16996,0.012847314,0.16996,0.012847314,0.19012,0.014371213,4.284,0.323828505,0.9156,0.069210406,7.63,0.576753383,27.5632,2.083508366,8.2376,0.622682001,38.822,2.934563541,0.231672,0.017512138,0.196448,0.014849548,38.822,2.934563541,0.427333879,0.354451558,0.423288508,137,137,89,268,268,284,0.53,0.72,0.51,1.4898,2.8564,1.0897
4213075,"Brandy Run near Girard, PA",US,11.6514,41.992,-80.291174,1.3748,2.159795771,0.9044,1.420802514,1.3748,2.159795771,0.01848,0.029031878,0.01848,0.029031878,0.05152,0.080937357,0.14924,0.234454409,0.04788,0.075218957,0.19558,0.307254042,0.51184,0.804095045,0.30912,0.485624141,0.6426,1.009517575,0.023072,0.03624586,0.021336,0.033518623,0.6426,1.009517575,0.459222402,0.45846339,0.425603021,295,136,295,264,264,283,0.43,0.5,0.42,1.0135,1.2199,0.7935
4213500,CATTARAUGUS CR AT GOWANDA NY,US,1128.811,42.46395,-78.935035,152.88,402.6690079,85.68,225.6716418,152.88,402.6690079,2.4164,6.36453029,2.4164,6.36453029,2.884,7.596136962,14.756,38.86567164,6.496,17.10974539,22.204,58.48287972,54.096,142.4828797,33.096,87.17120281,64.498,169.880597,3.0856,8.127129061,2.758,7.264266901,64.498,169.880597,0.48058125,0.473199024,0.465753741,63,137,63,272,272,286,0.37,0.41,0.37,1.0236,1.0212,0.851
4215000,CAYUGA CREEK NR LANCASTER NY,US,248.0184,42.890059,-78.645028,48.44,8.175570546,25.396,4.286267333,48.44,8.175570546,0.05684,0.0095933,0.05684,0.0095933,0.18228,0.030764719,2.3128,0.39034805,0.4928,0.083173434,3.668,0.619074995,13.9664,2.357210745,7.0504,1.189947204,16.5298,2.789854377,0.143696,0.024252617,0.078232,0.013203783,16.5298,2.789854377,0.442066229,0.291107945,0.414094458,63,144,63,273,273,287,0.58,0.84,0.54,1.4723,2.0203,1.1807
4215500,CAZENOVIA CREEK AT EBENEZER NY,US,350.7246,42.829781,-78.775031,60.2,2.748270205,32.76,1.495570297,60.2,2.748270205,0.22036,0.010059947,0.22036,0.010059947,0.4816,0.021986162,3.78,0.172565804,1.3888,0.063401954,6.132,0.279940081,19.1744,0.875356017,9.6152,0.438956274,22.0304,1.005739068,0.45976,0.020989115,0.30016,0.013703003,22.0304,1.005739068,0.462489285,0.439681093,0.441224098,63,155,63,271,271,286,0.52,0.68,0.48,1.221,1.575,0.9835
4216418,TONAWANDA CREEK AT ATTICA NY,US,196.4727,42.863949,-78.283628,42.28,7.67510594,15.876,2.881976866,42.28,7.67510594,0.20104,0.036494875,0.20104,0.036494875,0.27244,0.049456146,1.7696,0.321236222,0.5516,0.100132177,3.318,0.602317916,9.9512,1.806445464,5.0456,0.915929861,12.6798,2.301769354,0.249536,0.045298374,0.21224,0.038528015,12.6798,2.301769354,0.451647744,0.465418257,0.431765398,63,144,63,272,272,285,0.45,0.53,0.45,1.3795,1.5005,1.1497
4217000,TONAWANDA CREEK AT BATAVIA NY,US,443.268,42.99756,-78.188628,69.44,26.14252773,21.028,7.916547711,69.44,26.14252773,0.16156,0.060823542,0.16156,0.060823542,0.308,0.11595476,2.996,1.127923575,1.0304,0.387921379,6.006,2.261117821,18.872,7.10486439,10.248,3.858131108,22.5722,8.497902712,0.32872,0.123755353,0.2198,0.082749533,22.5722,8.497902712,0.404089061,0.478521788,0.368294274,64,122,64,273,273,287,0.39,0.48,0.37,1.3004,1.4373,1.0703
4218000,TONAWANDA CREEK AT RAPIDS NY,US,896.9733,43.093113,-78.63614,87.64,274.8143067,33.6,105.3601176,87.64,274.8143067,0.5516,1.72966193,0.5516,1.72966193,1.0108,3.169583537,6.944,21.7744243,2.0048,6.286487016,14.462,45.34875061,33.432,104.833317,19.7008,61.77614895,42.07,131.9196472,0.78344,2.456646742,0.60032,1.882434101,42.07,131.9196472,0.479910445,0.456798689,0.463478529,66,123,66,270,270,291,0.23,0.32,0.22,1.0934,1.2758,0.8586
4218518,ELLICOTT CREEK BELOW WILLIAMSVILLE NY,US,220.2912,42.977836,-78.763643,23.744,2.473995798,17.304,1.802982787,23.744,2.473995798,0.532,0.05543151,0.532,0.05543151,0.8344,0.086939947,3.052,0.318001818,1.4952,0.155791717,3.878,0.404066531,11.1552,1.162311233,8.8256,0.91957957,11.5976,1.20840691,0.68768,0.07165252,0.5936,0.061849895,11.5976,1.20840691,0.422484845,0.474288596,0.343943411,64,199,64,270,270,286,0.33,0.42,0.3,0.9067,1.159,0.7471